[
  {
    "id": 1,
    "name": "Le Grand Véfour",
    "city": "Paris",
    "address": "17 Rue de Beaujolais, 75001 Paris",
    "category": "Deux étoiles",
    "cuisine": "Française",
    "priceRange": "€€€€",
    "lat": 48.8638,
    "lng": 2.3376,
    "description": "Cadre historique exceptionnel sous les arcades du Palais-Royal, cuisine classique revisitée.",
    "image": "https://picsum.photos/seed/restaurant1/400/250"
  },
  {
    "id": 2,
    "name": "Septime",
    "city": "Paris",
    "address": "80 Rue de Charonne, 75011 Paris",
    "category": "Une étoile",
    "cuisine": "Bistronomique",
    "priceRange": "€€€",
    "lat": 48.8534,
    "lng": 2.3793,
    "description": "La bistronomie parisienne dans toute sa splendeur. Menu créatif et produits du marché.",
    "image": "https://picsum.photos/seed/restaurant2/400/250"
  },
  {
    "id": 3,
    "name": "Bouillon Chartier",
    "city": "Paris",
    "address": "7 Rue du Faubourg Montmartre, 75009 Paris",
    "category": "Bib Gourmand",
    "cuisine": "Française",
    "priceRange": "€",
    "lat": 48.8738,
    "lng": 2.3467,
    "description": "Institution parisienne depuis 1896. Cuisine traditionnelle à prix accessibles dans un cadre Belle Époque.",
    "image": "https://picsum.photos/seed/restaurant3/400/250"
  },
  {
    "id": 4,
    "name": "Frenchie",
    "city": "Paris",
    "address": "5 Rue du Nil, 75002 Paris",
    "category": "Une étoile",
    "cuisine": "Franco-Américaine",
    "priceRange": "€€€",
    "lat": 48.8629,
    "lng": 2.3488,
    "description": "Gregory Marchand signe une cuisine créative mêlant influences françaises et anglo-saxonnes.",
    "image": "https://picsum.photos/seed/restaurant4/400/250"
  },
  {
    "id": 5,
    "name": "Le Clarence",
    "city": "Paris",
    "address": "31 Avenue Franklin D. Roosevelt, 75008 Paris",
    "category": "Deux étoiles",
    "cuisine": "Gastronomique",
    "priceRange": "€€€€",
    "lat": 48.8706,
    "lng": 2.3099,
    "description": "Hôtel particulier haussmannien, cuisine d'auteur entre tradition et modernité.",
    "image": "https://picsum.photos/seed/restaurant5/400/250"
  },
  {
    "id": 6,
    "name": "Le Petit Nice",
    "city": "Nice",
    "address": "17 Promenade des Anglais, 06000 Nice",
    "category": "Trois étoiles",
    "cuisine": "Méditerranéenne",
    "priceRange": "€€€€",
    "lat": 43.6897,
    "lng": 7.2525,
    "description": "Face à la Méditerranée, cuisine marine d'exception par Gérald Passédat.",
    "image": "https://picsum.photos/seed/restaurant6/400/250"
  },
  {
    "id": 7,
    "name": "L'Auberge du Vieux Puits",
    "city": "Lyon",
    "address": "9 Place du Change, 69005 Lyon",
    "category": "Bib Gourmand",
    "cuisine": "Lyonnaise",
    "priceRange": "€€",
    "lat": 45.7637,
    "lng": 4.8269,
    "description": "Authentique bouchon lyonnais. Quenelles, tablier de sapeur et tête de veau au menu.",
    "image": "https://picsum.photos/seed/restaurant7/400/250"
  },
  {
    "id": 8,
    "name": "Mère Brazier",
    "city": "Lyon",
    "address": "12 Rue Royale, 69001 Lyon",
    "category": "Deux étoiles",
    "cuisine": "Lyonnaise",
    "priceRange": "€€€€",
    "lat": 45.7681,
    "lng": 4.8348,
    "description": "Maison centenaire, berceau de la gastronomie lyonnaise. Matthieu Viannay perpétue le mythe.",
    "image": "https://picsum.photos/seed/restaurant8/400/250"
  },
  {
    "id": 9,
    "name": "La Merenda",
    "city": "Nice",
    "address": "4 Rue Raoul Bosio, 06300 Nice",
    "category": "Bib Gourmand",
    "cuisine": "Niçoise",
    "priceRange": "€€",
    "lat": 43.6965,
    "lng": 7.2745,
    "description": "Minuscule repaire niçois sans téléphone ni carte bancaire. Cuisine de terroir absolument authentique.",
    "image": "https://picsum.photos/seed/restaurant9/400/250"
  },
  {
    "id": 10,
    "name": "La Brasserie de l'Isle Saint-Louis",
    "city": "Paris",
    "address": "55 Quai de Bourbon, 75004 Paris",
    "category": "Bib Gourmand",
    "cuisine": "Alsacienne",
    "priceRange": "€€",
    "lat": 48.8518,
    "lng": 2.3572,
    "description": "Brasserie alsacienne typique sur les quais de l'Isle Saint-Louis. Choucroute et bières maison.",
    "image": "https://picsum.photos/seed/restaurant10/400/250"
  },
  {
    "id": 11,
    "name": "Arpège",
    "city": "Paris",
    "address": "84 Rue de Varenne, 75007 Paris",
    "category": "Trois étoiles",
    "cuisine": "Végétale",
    "priceRange": "€€€€",
    "lat": 48.8553,
    "lng": 2.3149,
    "description": "Alain Passard et sa cuisine végétale d'exception. Légumes du potager en vedette.",
    "image": "https://picsum.photos/seed/restaurant11/400/250"
  },
  {
    "id": 12,
    "name": "Daniel et Denise",
    "city": "Lyon",
    "address": "156 Rue de Créqui, 69003 Lyon",
    "category": "Bib Gourmand",
    "cuisine": "Lyonnaise",
    "priceRange": "€€",
    "lat": 45.7575,
    "lng": 4.8432,
    "description": "Joseph Viola, MOF charcutier, signe les meilleures quenelles et gratins lyonnais de la ville.",
    "image": "https://picsum.photos/seed/restaurant12/400/250"
  }
]
